City,Cloudiness,Country,Date,Humidity,Lat,Lng,Max Temp,Wind Speed
Naryan-Mar,76.0,RU,1547364696.0,85.0,67.67,53.09,-9.44,7.34
Busselton,0.0,AU,1547364697.0,83.0,-33.64,115.35,23.27,8.79
Winnemucca,1.0,US,1547362560.0,66.0,40.97,-117.74,-1.7,3.6
Avarua,20.0,CK,1547362800.0,83.0,-21.21,-159.78,26.0,2.1
Mareeba,40.0,AU,1547362800.0,58.0,-16.99,145.42,30.0,6.7
Meulaboh,8.0,ID,1547364698.0,100.0,4.14,96.13,28.32,2.91
Kaeo,0.0,NZ,1547364784.0,66.0,-35.1,173.78,19.77,3.41
Haines Junction,32.0,CA,1547364673.0,55.0,60.75,-137.51,-29.79,0.94
Bay Roberts,90.0,CA,1547362800.0,73.0,47.58,-53.28,-5.0,8.2
,,,,,,,,
Codrington,0.0,AU,1547362800.0,51.0,-28.95,153.24,28.0,5.1
New Norfolk,75.0,AU,1547362800.0,43.0,-42.78,147.06,22.0,5.7
Flinders,92.0,AU,1547364700.0,86.0,-34.58,150.85,21.77,1.81
Saint-Augustin,90.0,FR,1547362800.0,100.0,44.83,-0.61,10.0,3.1
,,,,,,,,
,,,,,,,,
Bati,0.0,ET,1547364701.0,33.0,11.19,40.02,25.92,2.79
Kodiak,90.0,US,1547362500.0,92.0,39.95,-94.76,0.0,5.1
Hithadhoo,56.0,MV,1547364701.0,100.0,-0.6,73.08,27.87,2.86
Anadyr,0.0,RU,1547362800.0,68.0,64.73,177.51,-26.0,3.0
Ushuaia,40.0,AR,1547362800.0,70.0,-54.81,-68.31,7.0,17.0
Whitehorse,90.0,CA,1547362800.0,76.0,60.72,-135.06,-21.0,1.0
Eyl,0.0,SO,1547364702.0,76.0,7.98,49.82,27.07,8.59
Kapaa,1.0,US,1547362560.0,83.0,22.08,-159.32,21.1,3.1
,,,,,,,,
Puerto Carreno,32.0,CO,1547364703.0,89.0,6.19,-67.49,20.07,1.34
Tabory,92.0,PL,1547364703.0,99.0,53.89,19.53,2.27,4.51
Port Alfred,0.0,ZA,1547364703.0,73.0,-33.59,26.89,23.77,3.41
Albany,90.0,US,1547362440.0,50.0,42.65,-73.75,-9.4,4.6
San Francisco del Mar,0.0,MX,1547364704.0,100.0,16.34,-94.51,23.92,11.14
Airai,36.0,TL,1547364704.0,61.0,-8.93,125.41,27.12,0.89
Longyearbyen,20.0,NO,1547362200.0,55.0,78.22,15.63,-13.0,3.6
Arman,0.0,RU,1547364704.0,59.0,59.7,150.17,-21.94,2.34
Hasaki,20.0,JP,1547362800.0,49.0,35.73,140.83,8.0,5.7
Caraz,20.0,PE,1547364705.0,82.0,-9.05,-77.81,4.52,0.69
Mataura,88.0,NZ,1547364408.0,91.0,-46.19,168.86,12.99,2.07
Liverpool,75.0,GB,1547362200.0,81.0,53.41,-2.98,10.0,12.9
Barrow,64.0,AR,1547364706.0,97.0,-38.31,-60.23,16.72,1.36
Faanui,76.0,PF,1547364706.0,100.0,-16.48,-151.75,28.37,8.46
Batagay-Alyta,20.0,RU,1547364706.0,69.0,67.8,130.41,-38.49,1.26
Ambon,90.0,FR,1547362800.0,93.0,47.55,-2.56,10.0,4.6
,,,,,,,,
Guara,20.0,CU,1547362500.0,83.0,22.81,-82.2,21.0,2.6
Venado Tuerto,76.0,AR,1547364578.0,93.0,-33.75,-61.97,20.89,4.37
,,,,,,,,
Soligalich,76.0,RU,1547364707.0,89.0,59.08,42.29,-6.04,4.61
Rikitea,44.0,PF,1547364708.0,99.0,-23.12,-134.97,26.17,6.56
Vaini,0.0,IN,1547362800.0,42.0,15.34,74.49,29.0,3.1
Chuy,92.0,UY,1547364712.0,99.0,-33.69,-53.46,20.42,4.86
Silopi,75.0,IQ,1547362200.0,52.0,37.25,42.47,5.0,3.6
Aklavik,5.0,CA,1547362800.0,59.0,68.22,-135.01,-35.0,2.1
Ust-Ilimsk,44.0,RU,1547364713.0,61.0,57.96,102.73,-21.84,2.96
Puerto Ayora,80.0,EC,1547364713.0,100.0,-0.74,-90.35,23.92,3.29
Kirakira,92.0,SB,1547364713.0,100.0,-10.46,161.92,25.82,6.41
Lompoc,20.0,US,1547363700.0,92.0,34.64,-120.46,9.4,2.1
,,,,,,,,
Ilebo,92.0,CD,1547364714.0,95.0,-4.33,20.59,23.27,1.36
Makkaveyevo,56.0,RU,1547362800.0,60.0,51.75,113.95,-14.0,2.0
Araouane,32.0,ML,1547364715.0,27.0,18.9,-3.53,12.37,5.64
Yeovil,75.0,GB,1547362200.0,100.0,50.94,-2.63,10.0,11.8
Portree,92.0,GB,1547364716.0,100.0,57.41,-6.19,7.67,13.99
Bilma,0.0,NE,1547364716.0,30.0,18.69,12.92,13.52,7.44
Tongliao,0.0,CN,1547364717.0,49.0,43.61,122.27,-7.94,2.34
Cape Town,40.0,ZA,1547362800.0,64.0,-33.93,18.42,21.0,6.7
Wanning,75.0,AT,1547362200.0,93.0,48.64,13.53,2.0,4.1
Portland,1.0,US,1547362560.0,57.0,45.52,-122.67,7.2,5.7
Punta Arenas,40.0,CL,1547362800.0,65.0,-53.16,-70.91,8.0,17.5
Gamba,0.0,CN,1547364718.0,55.0,28.28,88.52,-8.34,4.66
Dhandhuka,0.0,IN,1547364718.0,52.0,22.38,71.98,27.22,3.39
Saint-Philippe,1.0,CA,1547363520.0,77.0,45.36,-73.48,-19.0,1.21
Cherskiy,36.0,RU,1547364719.0,63.0,68.75,161.3,-29.74,1.21
Yellowknife,5.0,CA,1547362800.0,74.0,62.45,-114.38,-30.0,4.6
West Helena,90.0,US,1547363700.0,100.0,34.55,-90.64,8.0,5.7
Ulladulla,92.0,AU,1547364719.0,96.0,-35.36,150.48,21.87,3.51
Lebu,0.0,ET,1547359200.0,25.0,8.96,38.73,16.0,2.1
Nikolskoye,0.0,RU,1547362800.0,85.0,59.7,30.79,-6.0,4.0
Cidreira,24.0,BR,1547364720.0,95.0,-30.17,-50.22,22.37,3.71
Cabra,0.0,ES,1547362800.0,89.0,37.47,-4.43,0.0,3.1
Hilo,1.0,US,1547362380.0,83.0,19.71,-155.08,20.0,3.1
Cabo San Lucas,0.0,MX,1547364721.0,100.0,22.89,-109.91,21.17,3.16
Mirnyy,68.0,RU,1547364721.0,90.0,56.57,36.46,-4.99,3.51
,,,,,,,,
Khlevnoye,76.0,RU,1547364721.0,92.0,54.57,39.32,-5.84,4.09
Buraydah,75.0,SA,1547362800.0,63.0,26.33,43.97,17.0,4.1
Hermanus,8.0,ZA,1547364722.0,55.0,-34.42,19.24,21.77,4.61
Nanortalik,88.0,GL,1547364722.0,93.0,60.14,-45.24,-0.09,3.29
Klaksvik,88.0,FO,1547362200.0,93.0,62.23,-6.59,3.0,2.1
Kopervik,92.0,NO,1547362200.0,93.0,59.28,5.31,8.0,10.8
Marawi,56.0,PH,1547364723.0,89.0,8.0,124.29,22.47,1.14
Santa Lucia,20.0,IT,1547358900.0,57.0,39.93,9.66,10.0,2.6
Georgetown,20.0,GY,1547362800.0,100.0,6.8,-58.16,21.0,0.5
Te Anau,88.0,NZ,1547364605.0,66.0,-45.41,167.72,11.02,0.49
Susanville,1.0,US,1547362500.0,86.0,40.42,-120.65,-1.0,0.89
Saskylakh,0.0,RU,1547364725.0,0.0,71.97,114.09,-49.44,2.29
Hobart,75.0,AU,1547362800.0,43.0,-42.88,147.33,22.0,5.7
Nantucket,1.0,US,1547362560.0,47.0,41.28,-70.1,-5.0,4.1
Grindavik,40.0,IS,1547362800.0,100.0,63.84,-22.43,1.0,9.3
Cody,1.0,US,1547362560.0,87.0,44.53,-109.06,-4.0,0.69
,,,,,,,,
Dongling,44.0,CN,1547364726.0,90.0,32.28,121.37,6.07,3.99
Morondava,24.0,MG,1547364726.0,71.0,-20.3,44.28,32.52,2.59
Husavik,64.0,CA,1547364726.0,90.0,50.56,-96.99,-7.74,5.84
Srivardhan,0.0,IN,1547364727.0,58.0,18.03,73.02,29.07,2.26
Arraial do Cabo,0.0,BR,1547364728.0,93.0,-22.97,-42.02,24.17,5.86
,,,,,,,,
Saldanha,76.0,PT,1547364430.0,81.0,41.42,-6.55,-6.17,1.45
Rosetta,40.0,EG,1547362800.0,81.0,31.4,30.42,12.0,8.7
Atuona,100.0,PF,1547364728.0,100.0,-9.8,-139.03,27.27,6.51
Laguna,12.0,MX,1547364729.0,78.0,27.52,-110.01,10.07,1.21
Zomin,0.0,UZ,1547364729.0,71.0,39.96,68.4,9.02,7.31
Port Hedland,0.0,AU,1547362800.0,40.0,-20.31,118.58,39.0,9.3
Goderich,32.0,CA,1547364730.0,91.0,43.74,-81.71,-12.64,4.71
Jamestown,0.0,AU,1547364730.0,24.0,-33.21,138.6,31.42,3.36
Guerrero Negro,68.0,MX,1547364730.0,96.0,27.97,-114.04,13.67,1.16
Mahebourg,75.0,MU,1547362800.0,70.0,-20.41,57.7,29.0,6.2
Ponta do Sol,88.0,BR,1547364730.0,98.0,-20.63,-46.0,17.52,0.79
Talnakh,76.0,RU,1547364526.0,52.0,69.49,88.39,-27.92,8.87
Nome,1.0,US,1547363700.0,83.0,30.04,-94.42,7.5,2.1
Yenagoa,0.0,NG,1547364731.0,66.0,4.92,6.26,31.27,4.14
,,,,,,,,
Thompson,90.0,CA,1547362800.0,85.0,55.74,-97.86,-10.0,3.1
Mudgee,0.0,AU,1547362800.0,40.0,-32.6,149.59,32.0,3.6
Bluff,12.0,AU,1547364732.0,34.0,-23.58,149.07,31.92,5.76
Henties Bay,12.0,NA,1547364732.0,96.0,-22.12,14.28,18.72,1.74
Iskateley,88.0,RU,1547364638.0,89.0,67.68,53.15,-9.24,7.89
Bredasdorp,44.0,ZA,1547362800.0,33.0,-34.53,20.04,24.0,9.8
Clyde River,1.0,CA,1547362800.0,73.0,70.47,-68.59,-37.0,2.1
Gazanjyk,0.0,TM,1547364733.0,81.0,39.24,55.52,13.82,1.61
Altay,0.0,CN,1547364734.0,76.0,47.83,88.13,-11.09,0.89
Tyukalinsk,80.0,RU,1547364734.0,90.0,55.87,72.2,-7.59,7.51
Tutoia,80.0,BR,1547364734.0,100.0,-2.76,-42.27,21.62,1.34
Tautira,90.0,PF,1547362800.0,69.0,-17.73,-149.15,28.0,5.7
Narsaq,88.0,GL,1547362200.0,89.0,60.91,-46.05,0.0,2.6
Butaritari,36.0,KI,1547364735.0,100.0,3.07,172.79,28.87,5.74
Qaanaaq,0.0,GL,1547364736.0,100.0,77.48,-69.36,-32.34,4.81
Esperance,20.0,TT,1547362800.0,83.0,10.24,-61.45,23.0,2.14
Kandrian,88.0,PG,1547364737.0,91.0,-6.21,149.55,26.67,0.94
,,,,,,,,
Kosa,24.0,RU,1547364737.0,93.0,59.94,54.99,-7.79,4.36
Mollendo,24.0,PE,1547364502.0,86.0,-17.03,-72.02,12.09,0.82
Caravelas,92.0,BR,1547364703.0,100.0,-17.73,-39.27,26.32,3.41
Anderson,90.0,US,1547363700.0,100.0,34.51,-82.65,2.0,3.1
,,,,,,,,
,,,,,,,,
Tampakan,75.0,PH,1547362800.0,52.0,6.44,124.93,32.0,5.1
Pirovskoye,20.0,RU,1547364739.0,75.0,57.63,92.27,-24.09,1.26
Praia,0.0,BR,1547359200.0,73.0,-20.25,-43.81,22.0,4.1
Aswan,64.0,EG,1547364635.0,65.0,24.09,32.9,20.77,2.01
Provideniya,12.0,RU,1547364740.0,100.0,64.42,-173.23,-21.44,12.49
Zarubino,0.0,RU,1547364740.0,97.0,42.65,131.06,-4.94,1.89
Neiafu,75.0,TO,1547359200.0,74.0,-18.65,-173.98,27.0,5.1
Port Hardy,90.0,CA,1547362800.0,76.0,50.7,-127.42,9.0,7.7
Ivangorod,20.0,RU,1547364741.0,90.0,59.38,28.23,-7.94,2.51
Presidencia Roque Saenz Pena,44.0,AR,1547364741.0,96.0,-26.79,-60.44,22.67,2.84
Kuching,75.0,MY,1547362800.0,74.0,1.56,110.34,29.0,4.1
Castelnaudary,90.0,FR,1547362800.0,65.0,43.32,1.95,8.0,8.2
Mar del Plata,0.0,AR,1547364474.0,59.0,-46.43,-67.52,11.04,3.6
Williams Lake,40.0,CA,1547362800.0,69.0,52.13,-122.14,1.0,4.6
Mount Gambier,0.0,AU,1547362800.0,56.0,-37.83,140.78,23.0,7.7
Torbay,90.0,CA,1547362800.0,73.0,47.66,-52.73,-5.0,8.2
Umea,0.0,SE,1547362200.0,92.0,63.83,20.26,-14.0,7.21
Presidente Medici,48.0,BR,1547364744.0,96.0,-11.18,-61.9,21.92,0.89
Tiksi,8.0,RU,1547364744.0,64.0,71.64,128.87,-36.99,1.36
Havoysund,40.0,NO,1547362200.0,80.0,71.0,24.66,-1.0,5.7
Coquimbo,0.0,CL,1547362800.0,87.0,-29.95,-71.34,15.0,3.1
Brae,92.0,GB,1547362200.0,87.0,60.4,-1.35,8.0,7.7
Ketchikan,90.0,US,1547362560.0,92.0,55.34,-131.65,10.0,3.1
,,,,,,,,
Kovdor,68.0,RU,1547364745.0,83.0,67.56,30.47,-6.59,1.96
Kaitangata,92.0,NZ,1547364746.0,95.0,-46.28,169.85,11.02,2.14
Geraldton,20.0,CA,1547362800.0,68.0,49.72,-86.95,-27.0,1.0
Sitka,88.0,US,1547364746.0,92.0,37.17,-99.65,-3.49,2.84
Sao Filipe,8.0,CV,1547364523.0,100.0,14.9,-24.5,21.59,4.5
Luderitz,0.0,NA,1547364746.0,92.0,-26.65,15.16,19.17,3.29
,,,,,,,,
Chokurdakh,76.0,RU,1547364747.0,59.0,70.62,147.9,-28.94,3.76
Malinyi,56.0,TZ,1547364747.0,87.0,-8.94,36.14,25.62,0.59
Batsfjord,20.0,NO,1547362200.0,85.0,70.63,29.72,-4.0,7.2
Maputo,40.0,MZ,1547362800.0,52.0,-25.97,32.57,32.0,2.6
Pevek,0.0,RU,1547364748.0,80.0,69.7,170.27,-32.24,2.11
Vestmanna,88.0,FO,1547362200.0,93.0,62.16,-7.17,3.0,2.1
Sumbe,75.0,AO,1547362800.0,100.0,-11.2,13.84,26.0,2.1
Tasiilaq,68.0,GL,1547362200.0,78.0,65.61,-37.64,-8.0,1.5
Nodebo,92.0,DK,1547362200.0,93.0,55.98,12.35,5.0,6.2
Flin Flon,24.0,CA,1547364572.0,79.0,54.77,-101.88,-13.17,1.37
Padang,75.0,ID,1547362800.0,88.0,-0.92,100.36,27.0,2.6
Luangwa,92.0,MZ,1547364749.0,100.0,-15.62,30.4,23.52,1.91
Fomboni,36.0,KM,1547364749.0,100.0,-12.28,43.74,28.97,5.29
Concarneau,90.0,FR,1547362800.0,100.0,47.88,-3.92,10.0,3.1
Bubaque,0.0,GW,1547364750.0,98.0,11.28,-15.83,26.17,4.36
,,,,,,,,
Auki,0.0,NG,1547364750.0,30.0,12.18,6.51,25.07,5.26
Saint-Louis,75.0,CH,1547362800.0,80.0,47.59,7.56,6.0,5.1
Bonfim,0.0,BR,1547359200.0,73.0,-20.33,-44.24,22.0,4.1
East London,20.0,ZA,1547362800.0,64.0,-33.02,27.91,24.0,6.2
Manokwari,64.0,ID,1547364751.0,100.0,-0.87,134.08,26.52,1.89
Portobelo,0.0,PA,1547362800.0,94.0,9.55,-79.65,21.0,1.0
Fort Nelson,90.0,CA,1547362800.0,70.0,58.81,-122.69,-20.0,4.1
Saint-Francois,90.0,FR,1547362800.0,93.0,46.42,3.91,7.0,5.7
Santa Ana,40.0,SV,1547358600.0,78.0,13.99,-89.56,22.0,1.0
Karlskrona,68.0,SE,1547362200.0,100.0,56.16,15.59,1.0,1.0
Ciudad Valles,92.0,MX,1547364545.0,99.0,21.99,-99.01,17.99,2.92
Pesaro,0.0,IT,1547364000.0,64.0,43.91,12.91,5.0,2.6
Mogok,0.0,MM,1547364568.0,63.0,22.92,96.51,22.04,0.92
Bethal,20.0,ZA,1547361000.0,64.0,-26.46,29.47,24.0,5.7
Dikson,68.0,RU,1547364754.0,96.0,73.51,80.55,-22.44,13.71
Manacor,20.0,ES,1547362800.0,100.0,39.57,3.21,1.0,3.75
Yalta,32.0,UA,1547364755.0,100.0,46.96,37.27,-3.39,3.14
Lavumisa,0.0,ZA,1547364755.0,52.0,-27.31,31.88,30.57,2.36
Lazaro Cardenas,0.0,MX,1547364755.0,81.0,28.39,-105.62,0.37,1.34
Kruisfontein,0.0,ZA,1547364527.0,81.0,-34.0,24.73,19.74,2.47
Huangchuan,0.0,CN,1547362800.0,23.0,24.57,102.46,18.0,11.0
Norman Wells,20.0,CA,1547362800.0,65.0,65.28,-126.83,-37.0,1.0
Methoni,20.0,GR,1547362200.0,75.0,36.82,21.7,6.0,2.1
La Ronge,40.0,CA,1547362800.0,85.0,55.1,-105.3,-8.0,3.1
Ribeira Grande,64.0,PT,1547364757.0,98.0,38.52,-28.7,16.77,9.44
Comodoro Rivadavia,0.0,AR,1547362800.0,47.0,-45.87,-67.48,15.0,0.5
,,,,,,,,
Luanda,90.0,AO,1547362800.0,83.0,-8.83,13.24,26.0,2.1
Mitrofanovka,0.0,UA,1547364758.0,100.0,45.45,34.68,-1.79,2.69
Qaqortoq,92.0,GL,1547362200.0,88.0,60.72,-46.03,0.0,2.6
,,,,,,,,
,,,,,,,,
Necochea,92.0,AR,1547364634.0,100.0,-38.55,-58.74,17.37,3.09
Robertsport,64.0,LR,1547364759.0,100.0,6.75,-11.37,28.37,1.14
Novobirilyussy,20.0,RU,1547364759.0,75.0,56.95,90.69,-23.99,2.04
Luganville,0.0,VU,1547364760.0,99.0,-15.51,167.18,28.57,2.29
Salalah,0.0,OM,1547362200.0,26.0,17.01,54.1,27.0,7.2
Puro,56.0,PH,1547364760.0,88.0,13.13,123.76,25.02,4.04
Adelaide,0.0,AU,1547362800.0,13.0,-34.93,138.6,32.0,6.2
Alenquer,0.0,BR,1547362800.0,94.0,-1.95,-54.74,24.0,1.0
Sept-Iles,5.0,CA,1547362800.0,65.0,50.2,-66.38,-14.0,2.1
Bambous Virieux,75.0,MU,1547362800.0,70.0,-20.34,57.76,29.0,6.2
Buzmeyin,0.0,TM,1547362800.0,35.0,38.05,58.21,13.0,4.1
Atikokan,88.0,CA,1547364761.0,90.0,48.76,-91.62,-6.64,2.36
Nauta,92.0,PE,1547364762.0,100.0,-4.51,-73.58,22.17,1.49
Kenai,90.0,US,1547362560.0,77.0,60.55,-151.26,-6.1,7.2
Kuusamo,75.0,FI,1547364000.0,85.0,65.96,29.19,-11.0,3.6
Vardo,90.0,US,1547363700.0,84.0,39.62,-77.74,-1.0,2.6
Castro,0.0,CL,1547362800.0,93.0,-42.48,-73.76,5.0,2.6
Half Moon Bay,1.0,US,1547363700.0,87.0,37.46,-122.43,14.4,3.77
Harper,1.0,US,1547362500.0,85.0,30.3,-99.24,2.2,3.49
Pisco,0.0,PE,1547362800.0,94.0,-13.71,-76.2,21.0,6.2
Bathsheba,40.0,BB,1547362800.0,65.0,13.22,-59.52,25.0,5.1
Gat,0.0,SN,1547362800.0,68.0,14.69,-16.54,20.0,6.7
Ostrovnoy,56.0,RU,1547364764.0,96.0,68.05,39.51,-7.34,5.16
Cheyenne,1.0,US,1547362680.0,79.0,41.14,-104.82,-7.8,2.6
Moron,88.0,VE,1547364765.0,96.0,10.49,-68.2,19.42,1.46
Kutum,0.0,SD,1547364765.0,38.0,14.2,24.66,26.72,2.06
Shasta Lake,90.0,US,1547362500.0,86.0,40.68,-122.36,7.2,1.5
General Artigas,0.0,PY,1547362800.0,94.0,-26.93,-56.22,24.0,2.6
,,,,,,,,
Faya,0.0,SA,1547362800.0,18.0,18.39,42.45,22.0,3.6
San Sebastian,56.0,PH,1547364766.0,86.0,11.71,125.02,25.92,6.31
Tuatapere,48.0,NZ,1547364548.0,87.0,-46.13,167.69,14.49,2.37
Vyartsilya,8.0,RU,1547364767.0,77.0,62.18,30.69,-11.99,3.39
,,,,,,,,
Catalina,20.0,CO,1547364767.0,96.0,8.86,-75.38,23.17,1.46
Kudahuvadhoo,48.0,MV,1547364767.0,100.0,2.67,72.89,28.12,5.31
Colomi,75.0,BO,1547362800.0,67.0,-17.34,-65.87,16.0,4.1
Grand Forks,90.0,US,1547363700.0,95.0,47.91,-97.06,-4.0,2.6
Mizque,48.0,BO,1547364768.0,98.0,-17.94,-65.34,7.62,0.94
Kijang,0.0,KR,1547362800.0,43.0,35.24,129.21,11.0,4.1
Carnarvon,0.0,ZA,1547364769.0,46.0,-30.97,22.13,21.42,3.96
Sorong,32.0,ID,1547364639.0,100.0,-0.86,131.25,28.02,3.59
Bandiagara,0.0,ML,1547359200.0,20.0,14.35,-3.61,20.0,3.1
Nioro,8.0,GM,1547364770.0,45.0,13.79,-15.05,20.92,4.14
San Juan,75.0,PH,1547362800.0,66.0,14.6,121.03,29.0,4.1
Constitucion,0.0,MX,1547364770.0,74.0,23.99,-104.67,1.37,1.91
Tuktoyaktuk,5.0,CA,1547359200.0,65.0,69.44,-133.03,-37.0,2.6
Saraipali,0.0,IN,1547364771.0,72.0,21.32,83.0,25.42,2.14
Mikkeli,0.0,FI,1547364000.0,85.0,61.69,27.27,-12.0,0.5
Iwanai,76.0,JP,1547364771.0,100.0,42.97,140.51,-0.09,4.51
Drovyanaya,68.0,RU,1547362800.0,60.0,51.58,113.05,-14.0,2.0
Khatanga,0.0,RU,1547364772.0,80.0,71.98,102.47,-39.19,1.44
Eureka,20.0,US,1547362500.0,92.0,40.8,-124.16,8.9,1.5
Rocha,88.0,UY,1547364772.0,97.0,-34.48,-54.34,18.67,2.94
Ambovombe,48.0,MG,1547364772.0,76.0,-25.18,46.09,30.87,1.89
Ambilobe,20.0,MG,1547364773.0,90.0,-13.19,49.05,29.32,4.04
Pyay,12.0,MM,1547364773.0,58.0,18.82,95.22,29.12,3.31
Sola,0.0,FI,1547364000.0,92.0,62.78,29.36,-13.0,1.0
Yantal,36.0,RU,1547364774.0,53.0,56.85,105.25,-20.74,3.19
Alice Springs,40.0,AU,1547362800.0,11.0,-23.7,133.88,42.0,7.7
,,,,,,,,
Denpasar,20.0,ID,1547362800.0,74.0,-8.65,115.22,31.0,4.1
Kangaatsiaq,64.0,GL,1547364774.0,100.0,68.31,-53.46,-15.54,3.16
Elko,1.0,US,1547362560.0,83.0,40.83,-115.76,-10.0,3.6
Weligama,80.0,LK,1547364775.0,90.0,5.97,80.42,28.72,2.69
Vaitape,88.0,PF,1547364647.0,100.0,-16.52,-151.75,27.42,8.14
Anito,92.0,PH,1547364775.0,96.0,12.45,125.29,26.97,8.69
Coxim,0.0,BR,1547364775.0,94.0,-18.5,-54.75,20.92,1.26
Horizontina,8.0,BR,1547364776.0,96.0,-27.63,-54.31,20.52,1.61
Maraba,0.0,BR,1547362800.0,94.0,-5.35,-49.1,23.0,1.5
Eirunepe,92.0,BR,1547364777.0,98.0,-6.66,-69.87,22.37,0.94
Savannah Bight,8.0,HN,1547364778.0,100.0,16.45,-85.85,24.62,2.71
Acapulco,40.0,MX,1547361780.0,88.0,16.86,-99.88,25.0,2.1
Rawson,0.0,AR,1547364778.0,100.0,-43.3,-65.11,10.67,2.41
Huadian,24.0,CN,1547364778.0,90.0,42.97,126.75,-5.64,1.91
Bethel,90.0,US,1547362560.0,82.0,60.79,-161.76,-17.2,8.2
Vila Velha,40.0,BR,1547362800.0,94.0,-3.71,-38.6,25.0,0.5
Talcahuano,0.0,CL,1547362800.0,87.0,-36.72,-73.12,14.0,3.6
Pangkalanbuun,80.0,ID,1547364780.0,86.0,-2.68,111.62,28.62,1.49
Kasongo-Lunda,76.0,CD,1547364780.0,88.0,-6.48,16.82,23.67,1.04
Hobyo,0.0,SO,1547364780.0,68.0,5.35,48.53,27.22,9.34
,,,,,,,,
,,,,,,,,
Miroslav,75.0,CZ,1547362800.0,86.0,48.95,16.31,1.0,6.2
Nizwa,0.0,OM,1547364781.0,59.0,22.93,57.53,22.37,1.74
Szigetvar,90.0,HU,1547361900.0,69.0,46.05,17.81,1.0,3.1
Nemuro,20.0,JP,1547362800.0,53.0,43.32,145.57,-5.0,1.5
Souillac,90.0,FR,1547362800.0,93.0,45.6,-0.6,9.0,3.1
Buala,0.0,SB,1547364773.0,87.0,-8.15,159.59,28.17,3.91
Salinopolis,92.0,BR,1547364782.0,100.0,-0.61,-47.36,26.07,3.71
Berlevag,88.0,NO,1547364782.0,100.0,70.86,29.09,-2.39,1.79
Ancud,0.0,CL,1547362800.0,93.0,-41.87,-73.83,5.0,2.6
Mlonggo,75.0,ID,1547362800.0,74.0,-6.53,110.7,29.0,4.6
Uni,68.0,RU,1547364782.0,76.0,57.75,51.49,-11.64,4.49
Marsa Matruh,20.0,EG,1547362800.0,71.0,31.35,27.25,10.0,8.2
,,,,,,,,
Tongzi,76.0,CN,1547364783.0,66.0,28.78,105.09,10.42,1.89
Saint Anthony,20.0,US,1547362560.0,79.0,43.97,-111.68,-13.3,1.5
Silvania,44.0,CO,1547364784.0,75.0,4.4,-74.39,9.37,0.91
Chebsara,90.0,RU,1547362800.0,85.0,59.2,38.84,-4.0,3.0
Sobolevo,76.0,RU,1547364784.0,92.0,54.43,31.9,-3.34,3.84
,,,,,,,,
Tara,75.0,JP,1547362800.0,81.0,33.0,130.15,11.0,3.6
Ternate,75.0,PH,1547362800.0,66.0,14.29,120.72,29.0,4.1
Nuevo Progreso,90.0,US,1547364120.0,96.0,26.05,-97.95,15.0,4.21
Rio Grande,88.0,BR,1547364660.0,100.0,-32.03,-52.1,21.32,0.69
Poum,40.0,MK,1547362800.0,84.0,41.28,20.71,-13.0,3.1
,,,,,,,,
Hofn,88.0,IS,1547364786.0,100.0,64.25,-15.21,1.47,13.06
Havelock,90.0,US,1547362680.0,85.0,34.88,-76.9,8.3,4.6
Mitsamiouli,40.0,KM,1547362800.0,79.0,-11.38,43.28,29.0,5.1
Vao,92.0,EE,1547364786.0,95.0,59.1,26.19,-4.59,3.19
Kavieng,56.0,PG,1547364774.0,100.0,-2.57,150.8,27.92,4.26
La Ligua,0.0,CL,1547362800.0,76.0,-32.45,-71.23,14.0,1.81
Indiaroba,32.0,BR,1547364787.0,86.0,-11.53,-37.51,22.87,1.59
Mandapam,48.0,IN,1547364787.0,100.0,9.28,79.12,26.17,10.14
Sandviken,76.0,SE,1547364788.0,80.0,60.62,16.77,-3.44,3.14
Vysokovsk,90.0,RU,1547362800.0,85.0,56.32,36.55,-6.0,5.0
Kenora,90.0,CA,1547362800.0,92.0,49.76,-94.48,-5.0,4.1
Bulungu,64.0,CD,1547364788.0,90.0,-4.54,18.6,26.97,1.89
Victoria,75.0,BN,1547362800.0,70.0,5.28,115.24,31.0,3.1
Dungarvan,75.0,IE,1547362800.0,87.0,52.09,-7.62,8.0,4.1
Ruiz,0.0,MX,1547364789.0,82.0,21.95,-105.15,15.42,1.14
Vestmannaeyjar,0.0,IS,1547364635.0,100.0,63.44,-20.27,-0.44,6.74
Gorontalo,8.0,ID,1547364789.0,82.0,0.54,123.06,26.82,1.29
High Level,20.0,CA,1547362800.0,91.0,58.52,-117.13,-17.0,4.6
Samarai,64.0,PG,1547364790.0,100.0,-10.62,150.67,27.77,5.51
Srednekolymsk,64.0,RU,1547364790.0,70.0,67.46,153.71,-30.84,2.14
Adeje,8.0,NG,1547364790.0,64.0,5.68,5.76,31.72,4.71
Suluq,8.0,LY,1547364790.0,69.0,31.67,20.25,13.37,7.99
Colares,0.0,PT,1547362800.0,65.0,38.8,-9.45,7.0,2.6
Bangsund,68.0,NO,1547364791.0,89.0,64.4,11.39,-1.34,3.94
Teya,5.0,MX,1547362500.0,88.0,21.05,-89.07,19.0,2.1
Ibipeba,8.0,BR,1547364791.0,84.0,-11.64,-42.01,18.47,3.39
Florianopolis,75.0,BR,1547362800.0,94.0,-27.6,-48.55,23.0,3.6
Koson,32.0,UZ,1547362800.0,49.0,39.04,65.59,9.0,1.0
Coruripe,92.0,BR,1547364792.0,100.0,-10.12,-36.18,24.17,2.59
Kabo,8.0,CF,1547364792.0,22.0,7.69,18.62,32.82,2.81
,,,,,,,,
Shihezi,80.0,CN,1547364792.0,89.0,44.3,86.03,-12.59,2.06
Langsa,36.0,ID,1547364793.0,90.0,4.47,97.97,24.67,1.24
Verkhnevilyuysk,56.0,RU,1547364793.0,72.0,63.45,120.31,-26.89,1.21
Quanzhou,90.0,CN,1547362800.0,68.0,24.9,118.59,19.0,4.0
Dicabisagan,92.0,PH,1547364793.0,100.0,17.08,122.42,23.37,3.99
Sainte-Maxime,12.0,FR,1547362800.0,57.0,43.31,6.64,11.0,4.6
Savannakhet,40.0,TH,1547362800.0,43.0,16.57,104.76,32.0,1.0
Ewa Beach,90.0,US,1547362620.0,68.0,21.32,-158.01,25.0,2.1
Les Cayes,32.0,HT,1547364794.0,100.0,18.19,-73.75,23.87,2.01
,,,,,,,,
Myitkyina,0.0,MM,1547364794.0,63.0,25.38,97.4,22.57,1.24
,,,,,,,,
Las Vegas,90.0,US,1547363700.0,45.0,36.17,-115.15,9.4,2.6
San Patricio,0.0,PY,1547364795.0,95.0,-26.98,-56.83,22.67,1.61
Okhotsk,0.0,RU,1547364795.0,100.0,59.36,143.24,-22.29,3.84
Namibe,0.0,AO,1547364627.0,100.0,-15.19,12.15,23.77,2.59
Piacabucu,56.0,BR,1547364796.0,100.0,-10.41,-36.43,22.67,2.04
Huarmey,48.0,PE,1547364796.0,89.0,-10.07,-78.15,14.87,0.26
Hamilton,75.0,BM,1547362500.0,77.0,32.3,-64.78,16.0,2.6
Sabha,0.0,LY,1547364796.0,57.0,27.03,14.43,5.32,2.41
Revda,88.0,RU,1547364797.0,91.0,67.94,34.55,-7.44,1.29
Stephenville,90.0,US,1547363700.0,80.0,32.22,-98.2,5.8,3.1
Tocopilla,8.0,CL,1547364797.0,100.0,-22.09,-70.2,14.22,0.81
Yulara,0.0,AU,1547362800.0,14.0,-25.24,130.99,44.0,4.6
Asyut,12.0,EG,1547362800.0,61.0,27.18,31.19,9.0,7.7
Zhangye,0.0,CN,1547364798.0,81.0,38.94,100.46,-4.89,2.91
,,,,,,,,
Sabang,80.0,PH,1547364798.0,93.0,13.72,123.58,25.02,5.49
Balabac,32.0,PH,1547364798.0,98.0,7.99,117.06,28.17,5.66
Aykhal,12.0,RU,1547364798.0,61.0,65.95,111.51,-37.09,1.39
Mantua,0.0,IT,1547364000.0,92.0,45.16,10.79,-1.0,1.5
Alofi,76.0,NU,1547362800.0,88.0,-19.06,-169.92,25.0,3.1
Nyuksenitsa,80.0,RU,1547364799.0,90.0,60.41,44.24,-6.29,5.51
Port Elizabeth,90.0,US,1547364120.0,92.0,39.31,-74.98,-2.8,3.1
Dingle,56.0,PH,1547364800.0,76.0,11.0,122.67,26.52,6.61
Coihaique,0.0,CL,1547362800.0,86.0,-45.58,-72.07,4.0,1.5
Isiro,12.0,CD,1547364800.0,45.0,2.77,27.62,31.57,1.34
Awbari,0.0,LY,1547364801.0,64.0,26.59,12.77,5.42,1.96
Yar-Sale,56.0,RU,1547364801.0,89.0,66.83,70.83,-15.59,7.79
Upernavik,32.0,GL,1547364801.0,100.0,72.79,-56.15,-22.34,4.64
Itoman,40.0,JP,1547362800.0,52.0,26.12,127.67,21.3,6.7
Wewak,56.0,PG,1547364802.0,87.0,-3.55,143.63,26.87,1.84
Yatou,75.0,CM,1547362800.0,100.0,3.63,9.81,26.0,0.81
Hirtshals,64.0,DK,1547364802.0,95.0,57.59,9.96,6.47,8.56
Saint George,0.0,GR,1547364000.0,64.0,39.45,22.34,2.0,3.6
Cockburn Town,88.0,TC,1547364803.0,100.0,21.46,-71.14,23.37,7.89
Pacific Grove,1.0,US,1547362800.0,76.0,36.62,-121.92,10.0,1.5
Emerald,44.0,AU,1547362800.0,34.0,-23.53,148.16,34.0,7.2
Fortuna,0.0,ES,1547362800.0,70.0,38.18,-1.13,8.0,3.1
Tezu,0.0,IN,1547364804.0,41.0,27.93,96.16,17.02,0.81
Beloha,68.0,MG,1547364804.0,91.0,-25.17,45.06,31.12,2.59
Mount Isa,0.0,AU,1547362800.0,11.0,-20.73,139.49,40.0,8.2
Rabat,0.0,MA,1547362800.0,93.0,34.02,-6.83,5.0,2.1
Uchiza,92.0,PE,1547364805.0,99.0,-8.46,-76.46,19.02,0.99
Traverse City,1.0,US,1547363760.0,73.0,44.76,-85.62,-5.0,1.5
Jardim,32.0,BR,1547364805.0,85.0,-21.48,-56.15,22.52,1.51
Strelka,20.0,RU,1547364805.0,59.0,58.08,93.03,-24.64,1.11
Alepe,75.0,CI,1547362800.0,88.0,5.5,-3.66,28.0,2.1
Jalingo,8.0,NG,1547364806.0,27.0,10.21,12.82,28.07,4.76
Ahuimanu,75.0,US,1547362620.0,87.0,21.44,-157.84,25.0,1.5
Port Macquarie,0.0,AU,1547362800.0,61.0,-31.43,152.91,27.0,5.7
,,,,,,,,
Balkanabat,0.0,TM,1547364807.0,64.0,39.51,54.36,11.67,1.24
Minsk,90.0,BY,1547362800.0,100.0,53.9,27.56,-3.0,3.0
Erzin,75.0,TR,1547362200.0,70.0,36.95,36.2,10.0,6.2
,,,,,,,,
Aranos,0.0,NA,1547364807.0,17.0,-24.14,19.11,29.32,4.04
Valle de Allende,0.0,MX,1547364808.0,74.0,26.94,-105.39,-1.49,1.79
Lorengau,80.0,PG,1547364808.0,99.0,-2.02,147.27,28.52,6.46
Sjovegan,36.0,NO,1547362200.0,92.0,68.87,17.85,-4.0,4.6
Talaja,0.0,IN,1547364808.0,49.0,21.35,72.04,26.77,4.49
,,,,,,,,
,,,,,,,,
Cao Bang,92.0,VN,1547364809.0,100.0,22.67,106.25,16.27,1.59
Grand-Santi,64.0,GF,1547364809.0,100.0,4.27,-54.38,21.77,1.01
Egvekinot,44.0,RU,1547364809.0,37.0,66.32,-179.17,-31.99,2.86
San Policarpo,92.0,PH,1547364810.0,93.0,12.18,125.51,25.97,7.06
Olga,1.0,US,1547363040.0,86.0,34.11,-118.17,12.2,1.51
Tshela,36.0,CD,1547364810.0,88.0,-4.99,12.94,26.27,1.74
Lavrentiya,0.0,RU,1547364793.0,100.0,65.58,-170.99,-22.99,14.49
Muros,0.0,ES,1547362800.0,86.0,42.77,-9.06,5.0,3.1
Kautokeino,48.0,NO,1547364730.0,79.0,69.01,23.04,-12.89,1.06
Sioux Lookout,90.0,CA,1547362800.0,92.0,50.1,-91.92,-7.0,2.1
Glendive,1.0,US,1547363700.0,87.0,47.11,-104.71,-5.0,3.6
Gilbues,12.0,BR,1547364811.0,84.0,-9.83,-45.34,20.92,1.74
Birjand,0.0,IR,1547362800.0,15.0,32.86,59.22,8.0,2.1
Jinchang,0.0,CN,1547364811.0,79.0,38.52,102.19,-3.39,0.94
Katangli,64.0,RU,1547364812.0,100.0,51.71,143.23,-11.24,5.84
Alford,75.0,GB,1547364000.0,87.0,53.26,0.18,10.0,9.8
Paamiut,88.0,GL,1547364812.0,97.0,61.99,-49.67,0.27,10.26
Manzanillo,0.0,CU,1547364812.0,100.0,20.34,-77.12,24.52,6.66
,,,,,,,,
Xinyu,88.0,CN,1547364812.0,92.0,27.8,114.93,9.52,2.96
Makakilo City,90.0,US,1547362620.0,68.0,21.35,-158.09,25.0,2.1
Gander,40.0,CA,1547362800.0,78.0,48.95,-54.61,-10.0,5.1
Wagar,68.0,US,1547364813.0,96.0,31.44,-87.99,14.52,1.89
Touros,40.0,BR,1547362800.0,94.0,-5.2,-35.46,24.0,1.5
Cascais,0.0,PT,1547362800.0,65.0,38.7,-9.42,7.0,2.6
Smirnykh,0.0,RU,1547364814.0,74.0,49.74,142.83,-16.14,3.09
La Palma,88.0,CO,1547364814.0,100.0,5.36,-74.39,17.77,0.76
Pokhara,0.0,NP,1547364814.0,53.0,28.21,83.99,13.92,1.21
Leningradskiy,20.0,RU,1547364815.0,100.0,69.38,178.42,-27.64,3.99
Itarema,76.0,BR,1547364815.0,95.0,-2.92,-39.92,22.42,1.16
Kharp,76.0,RU,1547364816.0,77.0,66.82,65.8,-16.74,3.76
Popondetta,88.0,PG,1547364816.0,92.0,-8.77,148.24,22.92,0.44
Los Llanos de Aridane,0.0,ES,1547362800.0,63.0,28.66,-17.92,16.0,3.1
San Andres,76.0,PH,1547364816.0,95.0,13.32,122.68,27.22,9.24
,,,,,,,,
Palmer,0.0,AU,1547362800.0,13.0,-34.85,139.16,32.0,6.2
Beyneu,20.0,KZ,1547364817.0,100.0,45.32,55.19,0.67,3.61
Maraa,20.0,BR,1547364818.0,99.0,-1.83,-65.37,22.62,1.46
Nouadhibou,0.0,MR,1547359200.0,62.0,20.93,-17.03,14.0,4.1
Lazarev,0.0,RU,1547364818.0,64.0,52.23,141.51,-19.64,2.71
Alyangula,75.0,AU,1547363460.0,94.0,-13.85,136.42,25.0,1.0
Celestun,0.0,MX,1547364818.0,100.0,20.87,-90.4,22.42,6.44
Jurbarkas,88.0,LT,1547364819.0,96.0,55.08,22.76,0.02,3.46
,,,,,,,,
Zlobin,0.0,HR,1547362800.0,80.0,45.29,14.65,4.0,1.79
Solnechnyy,56.0,RU,1547364819.0,69.0,50.72,136.64,-23.14,1.21
Mlowo,44.0,TZ,1547364820.0,72.0,-9.01,33.0,24.27,4.61
Colac,0.0,AU,1547364823.0,54.0,-38.34,143.59,22.92,2.46
Pangnirtung,8.0,CA,1547364823.0,60.0,66.15,-65.72,-36.44,1.69
,,,,,,,,
Sao Felix do Xingu,76.0,BR,1547364823.0,100.0,-6.64,-51.99,21.17,0.99
Kozhva,64.0,RU,1547364824.0,76.0,65.11,57.05,-9.74,4.59
Praia da Vitoria,20.0,PT,1547359200.0,82.0,38.73,-27.07,15.0,10.04
,,,,,,,,
Athabasca,8.0,CA,1547364824.0,65.0,54.72,-113.29,-13.69,1.29
,,,,,,,,
Dubbo,0.0,AU,1547362800.0,18.0,-32.25,148.6,39.0,5.7
Coromandel,24.0,NZ,1547362800.0,68.0,-36.76,175.5,22.0,4.6
Belfast,92.0,GB,1547362200.0,93.0,54.6,-5.93,10.0,8.2
Plouzane,90.0,FR,1547362800.0,93.0,48.38,-4.62,9.0,5.7
Katsuura,20.0,JP,1547362800.0,43.0,33.93,134.5,10.0,5.1
Grafton,0.0,AU,1547362800.0,58.0,-29.69,152.93,28.0,4.6
Livingstone,12.0,ZW,1547364913.0,70.0,-17.85,25.86,29.17,1.79
Severo-Kurilsk,44.0,RU,1547364827.0,100.0,50.68,156.12,-0.89,5.76
Cairns,40.0,AU,1547362800.0,58.0,-16.92,145.77,30.0,6.7
Vanavara,12.0,RU,1547364827.0,63.0,60.35,102.28,-29.89,2.51
Kahului,75.0,US,1547362560.0,84.0,20.89,-156.47,21.7,2.6
Nizhniy Chir,44.0,RU,1547364828.0,100.0,48.36,43.08,-5.39,4.64
Merauke,76.0,ID,1547364828.0,95.0,-8.49,140.4,27.42,1.29
Thinadhoo,8.0,MV,1547364828.0,100.0,0.53,72.93,28.32,4.29
Quelimane,40.0,MZ,1547362800.0,66.0,-17.88,36.89,31.0,4.1
Ampanihy,24.0,MG,1547364829.0,91.0,-24.69,44.75,30.37,3.04
Taos,90.0,US,1547362560.0,91.0,36.41,-105.57,-5.0,3.1
Kantemirovka,76.0,RU,1547364829.0,92.0,49.7,39.85,-5.09,4.74
Borgarnes,0.0,IS,1547362800.0,69.0,64.54,-21.92,1.0,7.7
Sinnamary,92.0,GF,1547364830.0,98.0,5.38,-52.96,25.37,4.74
Anchorage,90.0,US,1547362560.0,90.0,61.22,-149.89,-7.2,1.5
Skibbereen,75.0,IE,1547362800.0,87.0,51.55,-9.27,8.0,4.1
Aksarayskiy,76.0,RU,1547362800.0,100.0,46.79,48.01,0.0,4.0
Dwarka,20.0,IN,1547362800.0,46.0,28.58,77.04,21.0,2.1
Volsk,88.0,RU,1547364831.0,88.0,52.04,47.39,-8.34,5.39
Trapani,20.0,IT,1547364000.0,62.0,38.02,12.54,12.0,6.2
Yeysk,32.0,RU,1547364831.0,100.0,46.71,38.27,-2.34,3.46
La Piedad,40.0,MX,1547361720.0,81.0,20.58,-100.26,12.0,1.0
Oistins,40.0,BB,1547362800.0,65.0,13.07,-59.53,25.0,5.1
Lewistown,90.0,US,1547363700.0,92.0,40.39,-90.15,-1.2,7.2
Charters Towers,68.0,AU,1547364833.0,90.0,-20.07,146.27,23.87,3.49
Marsh Harbour,44.0,BS,1547364833.0,100.0,26.54,-77.06,23.37,5.21
Harda,0.0,IN,1547364833.0,47.0,22.34,77.09,28.07,2.01
Obo,24.0,CF,1547364834.0,51.0,5.39,26.49,30.92,2.81
Znamenskoye,92.0,RU,1547364834.0,88.0,57.13,73.82,-11.09,6.21
,,,,,,,,
Requena,20.0,ES,1547362800.0,86.0,39.49,-1.1,1.0,3.1
Santa Cruz,1.0,US,1547363700.0,96.0,36.97,-122.03,11.7,0.9
Pasni,0.0,PK,1547364637.0,73.0,25.26,63.48,23.77,1.49
Russell,75.0,AR,1547362800.0,88.0,-33.01,-68.8,18.0,6.7
Kurchatov,0.0,KZ,1547364837.0,79.0,50.75,78.54,-16.64,1.51
Bowen,75.0,AU,1547362800.0,69.0,-20.01,148.25,28.0,9.3
,,,,,,,,
Havre-Saint-Pierre,90.0,CA,1547362980.0,72.0,50.23,-63.6,-10.0,3.1
Nambucca Heads,0.0,AU,1547362800.0,65.0,-30.64,152.99,27.0,4.1
Xiongyue,0.0,CN,1547364838.0,51.0,40.18,122.12,-4.24,2.41
Mega,0.0,ET,1547364838.0,19.0,4.06,38.32,25.97,6.46
Shelburne,1.0,CA,1547362800.0,91.0,44.08,-80.2,-9.0,4.16
Quatre Cocos,75.0,MU,1547362800.0,70.0,-20.21,57.76,29.0,6.2
Nushki,0.0,PK,1547364647.0,78.0,29.55,66.02,9.77,1.89
Zhigansk,36.0,RU,1547364839.0,48.0,66.77,123.37,-26.64,3.94
Murray Bridge,0.0,AU,1547364839.0,56.0,-35.12,139.28,25.32,5.04
Gizo,0.0,IL,1547364000.0,44.0,31.8,34.94,16.0,7.7
Natal,40.0,BR,1547362800.0,78.0,-5.81,-35.21,26.0,2.1
Grants,40.0,US,1547362500.0,80.0,35.15,-107.85,0.0,4.6
Bilibino,8.0,RU,1547364841.0,53.0,68.06,166.44,-35.59,1.04
Taltal,0.0,CL,1547364841.0,100.0,-25.41,-70.49,9.17,1.04
,,,,,,,,
Ilabaya,8.0,PE,1547364841.0,91.0,-17.42,-70.51,10.02,0.81
Deputatskiy,44.0,RU,1547364844.0,54.0,69.3,139.9,-35.89,1.24
Dongsheng,48.0,CN,1547364844.0,75.0,29.72,112.52,9.82,2.01
Carauari,76.0,BR,1547364844.0,97.0,-4.88,-66.9,22.82,1.01
Maroantsetra,76.0,MG,1547364845.0,92.0,-15.43,49.74,26.42,1.81
Tigil,20.0,RU,1547364814.0,53.0,57.8,158.67,-20.24,1.49
,,,,,,,,
Tselinnoye,0.0,UA,1547364845.0,100.0,45.9,34.18,-0.94,2.36
Maymyo,40.0,MM,1547361000.0,48.0,22.03,96.47,28.0,2.1
,,,,,,,,
,,,,,,,,
Banjar,64.0,ID,1547364846.0,91.0,-7.37,108.54,25.42,1.11
Sur,0.0,OM,1547364846.0,100.0,22.57,59.53,22.57,3.01
Grand Gaube,75.0,MU,1547362800.0,70.0,-20.01,57.66,29.0,6.2
Mandurah,0.0,AU,1547362800.0,57.0,-32.55,115.7,27.0,8.7
,,,,,,,,
Cabedelo,0.0,BR,1547362800.0,94.0,-6.97,-34.84,23.0,3.1
Carnduff,0.0,CA,1547364847.0,63.0,49.17,-101.8,-16.24,1.36
Ullapool,92.0,GB,1547364847.0,100.0,57.9,-5.16,7.67,14.39
Jorochito,75.0,BO,1547362800.0,94.0,-18.06,-63.43,23.0,2.6
Kayerkan,80.0,RU,1547364848.0,66.0,69.35,87.76,-25.94,11.39
Rio Gallegos,0.0,AR,1547362800.0,87.0,-51.62,-69.22,9.0,10.3
Maragogi,80.0,BR,1547364849.0,100.0,-9.01,-35.22,23.42,1.56
,,,,,,,,
Vuktyl,80.0,RU,1547364849.0,79.0,63.86,57.31,-9.44,3.04
Maningrida,88.0,AU,1547364849.0,100.0,-12.05,134.23,26.67,1.46
Vysha,76.0,RU,1547364850.0,82.0,53.85,42.38,-8.19,4.06
Tubuala,0.0,PA,1547362800.0,94.0,9.52,-79.03,21.0,1.0
Broken Hill,0.0,AU,1547362800.0,12.0,-31.97,141.45,37.0,4.6
Gornyy,68.0,RU,1547364850.0,91.0,51.76,48.54,-6.64,6.34
Oliver,90.0,CA,1547362800.0,73.0,49.18,-119.55,1.0,2.1
Kota Kinabalu,75.0,MY,1547362800.0,62.0,5.98,116.07,32.0,4.1
Port Townsend,90.0,US,1547363700.0,83.0,48.12,-122.76,7.8,0.34
Adrar,0.0,DZ,1547362800.0,58.0,27.87,-0.29,0.0,5.1
Mahbubnagar,0.0,IN,1547364852.0,42.0,16.74,77.99,28.92,3.01
Shimoda,20.0,JP,1547362800.0,100.0,34.7,138.93,10.0,6.7
Saint-Vallier,90.0,FR,1547362800.0,93.0,46.64,4.37,7.0,5.7
Bokaa,0.0,BW,1547362800.0,45.0,-24.43,26.02,29.0,3.1
Magadi,12.0,IN,1547362800.0,27.0,12.96,77.22,26.0,2.1
Awjilah,56.0,LY,1547364853.0,64.0,29.14,21.3,13.22,8.29
,,,,,,,,
Kalulushi,92.0,ZM,1547364853.0,100.0,-12.84,28.09,18.97,3.91
Conde,68.0,BR,1547364853.0,94.0,-11.81,-37.61,24.37,1.91
Aurillac,90.0,FR,1547362800.0,100.0,44.93,2.44,4.0,2.6
Yumen,24.0,CN,1547364771.0,81.0,40.29,97.04,-9.24,4.09
Dunedin,92.0,NZ,1547364854.0,100.0,-45.87,170.5,9.77,2.69
Ahipara,0.0,NZ,1547364854.0,95.0,-35.17,173.16,18.02,2.81
Uttarkashi,0.0,IN,1547364854.0,86.0,30.73,78.44,4.37,0.91
Udachnyy,0.0,RU,1547364855.0,80.0,66.42,112.4,-39.59,1.11
Maniitsoq,48.0,GL,1547364930.0,100.0,65.42,-52.9,-12.69,2.94
Kieta,24.0,PG,1547364855.0,95.0,-6.22,155.63,27.27,1.36
Ekhabi,0.0,RU,1547364855.0,83.0,53.51,142.97,-15.69,4.84
Cukai,75.0,MY,1547362800.0,79.0,4.25,103.42,31.0,3.6
Hirata,40.0,JP,1547362800.0,55.0,37.21,140.56,4.0,5.1
Jabinyanah,40.0,TN,1547362800.0,61.0,35.03,10.91,8.0,4.1
Ngunguru,56.0,NZ,1547364856.0,90.0,-35.62,174.5,21.57,4.39
Shingu,20.0,JP,1547362800.0,100.0,33.72,135.99,12.0,6.7
Pochutla,0.0,MX,1547364857.0,100.0,15.74,-96.47,25.12,0.89
Tamale,12.0,GH,1547364857.0,22.0,9.4,-0.84,27.92,4.44
Nelson Bay,90.0,AU,1547362800.0,83.0,-32.72,152.14,24.0,7.7
Cheremukhovo,88.0,RU,1547364858.0,81.0,56.23,46.23,-10.49,3.99
Gympie,0.0,AU,1547364804.0,58.0,-26.2,152.66,24.27,3.49
Guanica,8.0,PR,1547364858.0,100.0,17.97,-66.91,21.87,3.76
Namtsy,0.0,RU,1547362800.0,57.0,62.72,129.66,-43.0,2.0
Ilula,12.0,TZ,1547364858.0,78.0,-7.68,36.04,23.07,1.79
Dawei,44.0,MM,1547364859.0,57.0,14.07,98.19,28.67,0.89
Gigmoto,64.0,PH,1547364859.0,98.0,13.78,124.39,26.02,6.34
Port Lincoln,0.0,AU,1547364859.0,61.0,-34.72,135.86,23.67,5.11
Boddam,20.0,GB,1547364000.0,62.0,57.47,-1.78,11.0,11.8
Luwuk,68.0,ID,1547364860.0,77.0,-0.95,122.79,30.07,1.04
Horta,0.0,ES,1547362800.0,100.0,41.43,2.16,4.0,2.6
Teguldet,0.0,RU,1547364860.0,78.0,57.31,88.17,-21.94,2.19
Tignere,8.0,CM,1547364860.0,23.0,7.37,12.65,29.02,2.61
Lubao,75.0,PH,1547362800.0,51.0,14.94,120.6,30.0,2.1
Puerto Escondido,0.0,MX,1547364861.0,100.0,15.86,-97.07,26.87,1.24
Baykit,0.0,RU,1547364861.0,50.0,61.68,96.39,-34.89,1.26
Vrontou,0.0,GR,1547364000.0,59.0,40.19,22.43,2.0,5.1
,,,,,,,,
Tshikapa,56.0,CD,1547364862.0,79.0,-6.42,20.79,26.57,1.29
Labuhan,80.0,ID,1547364862.0,100.0,-2.54,115.51,23.07,0.54
Sivaki,68.0,RU,1547364862.0,80.0,52.63,126.75,-18.74,1.16
Port Shepstone,0.0,ZA,1547364863.0,82.0,-30.74,30.45,26.42,5.49
Komsomolets,80.0,RU,1547364863.0,89.0,52.77,41.29,-7.14,5.39
Mackenzie,90.0,CA,1547363460.0,94.0,55.34,-123.09,1.0,2.1
Harlingen,1.0,US,1547364120.0,100.0,26.19,-97.7,15.0,2.1
,,,,,,,,
